[
  {
    "index": 0,
    "name": "Wapiti Ski Club",
    "latitude": 50.021685,
    "longitude": -114.9380363,
    "address": "1000 Natal Rd",
    "locality": "Elkford",
    "seasonPass": null,
    "shuttle": null,
    "nightSkiing": false,
    "description": "small and boring"
  },
  {
    "index": 1,
    "name": "Summit Lake Ski Area",
    "latitude": 50.1454638,
    "longitude": -117.6143793,
    "address": "2815 Hwy 6",
    "locality": "Nakusp",
    "seasonPass": null,
    "shuttle": null,
    "nightSkiing": false,
    "description": "small and boring"
  },
  {
    "index": 2,
    "name": "Sasquatch Mountain Resort",
    "latitude": 49.3801115,
    "longitude": -121.9354366,
    "address": "20955 Hemlock Valley Rd",
    "locality": "Hemlock Valley",
    "seasonPass": null,
    "shuttle": true,
    "nightSkiing": true,
    "description": "night skiing on weekends till 8pm, two chairs"
  },
  {
    "index": 3,
    "name": "Apex Mountain Resort",
    "latitude": 49.3904157,
    "longitude": -119.9047316,
    "address": "1000 Strayhorse Rd",
    "locality": "Apex",
    "seasonPass": 1825.95,
    "shuttle": true,
    "nightSkiing": true,
    "description": "reddit said the mountain is steep with few crowds, shuttle is expensive, night skiing on weekends only, includes terrain park"
  },
  {
    "index": 4,
    "name": "Salmo Ski Hill",
    "latitude": 49.1863972,
    "longitude": -117.3015278,
    "address": "499 Salmo Ski Hill Rd",
    "locality": "Salmo",
    "seasonPass": null,
    "shuttle": false,
    "nightSkiing": true,
    "description": "small hill, night skiing Mon to Thurs - requires seperate pass, hill closed on friday, lame"
  },
  {
    "index": 5,
    "name": "Red Mountain Resort",
    "latitude": 49.1023786,
    "longitude": -117.8193897,
    "address": "4300 Red Mountain Rd",
    "locality": "Rossland",
    "seasonPass": 1971.9,
    "shuttle": true,
    "nightSkiing": true,
    "description": "Pass perks: Free Night Skiing, 25% off hot chocolate, tea and brewed coffee, Lift ticket discounts at tons of reciprocal resorts, shuttle from Rossland $3/ride"
  },
  {
    "index": 6,
    "name": "Fernie Alpine Resort",
    "latitude": 49.4628444,
    "longitude": -115.0872374,
    "address": "5339 Fernie Ski Hill Rd",
    "locality": "West Fernie",
    "seasonPass": 3777.9,
    "shuttle": true,
    "nightSkiing": false,
    "description": "shuttle from elkford up to every 20min (less in evenings) $5/ride"
  },
  {
    "index": 7,
    "name": "Harper Mountain",
    "latitude": 50.7230743,
    "longitude": -120.138992,
    "address": "2580 Harper Mountain Rd",
    "locality": "Paul Lake",
    "seasonPass": null,
    "shuttle": false,
    "nightSkiing": true,
    "description": ""
  },
  {
    "index": 8,
    "name": "Phoenix Mountain Ski Resort",
    "latitude": 49.1092526,
    "longitude": -118.5857632,
    "address": "8000 Phoenix Ski Hill Rd",
    "locality": "Grand Forks",
    "seasonPass": 974.4,
    "shuttle": false,
    "nightSkiing": false,
    "description": "closed 2 days a week"
  },
  {
    "index": 9,
    "name": "Murray Ridge Ski Area",
    "latitude": 54.5172275,
    "longitude": -124.2097586,
    "address": "7904 Chalet Dr",
    "locality": "Fort St James",
    "seasonPass": 900,
    "shuttle": false,
    "nightSkiing": false,
    "description": ""
  },
  {
    "index": 10,
    "name": "Mount Seymour",
    "latitude": 49.36533,
    "longitude": -122.948213,
    "address": "1700 Mt Seymour Rd",
    "locality": "North Vancouver",
    "seasonPass": null,
    "shuttle": true,
    "nightSkiing": true,
    "description": "value pass available - only after 5pm on weekends, some blackout days. Included in full pass: shuttle, 2 days at nearby resorts, tubing, and snowshoe rentals "
  },
  {
    "index": 11,
    "name": "Fairmont Hot Springs Ski Hill",
    "latitude": 50.3387641,
    "longitude": -115.8265548,
    "address": "5225 Fairmont Resort Rd",
    "locality": "Fairmont Hot Springs",
    "seasonPass": null,
    "shuttle": false,
    "nightSkiing": false,
    "description": "lame."
  },
  {
    "index": 12,
    "name": "Big White Ski Resort",
    "latitude": 49.7266728,
    "longitude": -118.9286326,
    "address": "5340 Big White Rd",
    "locality": "Big White",
    "seasonPass": null,
    "shuttle": false,
    "nightSkiing": false,
    "description": ""
  },
  {
    "index": 13,
    "name": "Mount Baldy Ski Area",
    "latitude": 49.1528266,
    "longitude": -119.23578499999999,
    "address": "2680 Mount Baldy Rd",
    "locality": "Bridesville",
    "seasonPass": 1194.9,
    "shuttle": false,
    "nightSkiing": false,
    "description": "Included in pass: 2 FREE SKI DAYS at each of Apex, Manning Park, Mt. Seymour and Mt. Washington with your Baldy Mt Pass. Closed on Tues and Wed except for spring break. Located in Oliver, BC"
  },
  {
    "index": 14,
    "name": "Shames Mountain",
    "latitude": 54.4844725,
    "longitude": -128.9533636,
    "address": "4544 Lakelse Ave",
    "locality": "Terrace",
    "seasonPass": 1862.8,
    "shuttle": false,
    "nightSkiing": false,
    "description": "Moutain Co-operative"
  },
  {
    "index": 15,
    "name": "Troll Resort",
    "latitude": 53.0660023,
    "longitude": -121.942005,
    "address": "7271 Barkerville Hwy",
    "locality": "Cottonwood",
    "seasonPass": 1230,
    "shuttle": false,
    "nightSkiing": false,
    "description": ""
  },
  {
    "index": 16,
    "name": "Crystal Mountain Resort",
    "latitude": 49.8810732,
    "longitude": -119.7105691,
    "address": null,
    "locality": "Powder King",
    "seasonPass": null,
    "shuttle": false,
    "nightSkiing": false,
    "description": "shutdown"
  },
  {
    "index": 17,
    "name": "Purden Ski Village",
    "latitude": 53.9009836,
    "longitude": -121.8839734,
    "address": "3000 Purden Ski Hill Rd",
    "locality": "Purden",
    "seasonPass": 1835.0,
    "shuttle": false,
    "nightSkiing": false,
    "description": "PURDEN MAY EXPERIENCES FREQUENT INTERNET OUTAGES"
  },
  {
    "index": 18,
    "name": "Mount Cain Alpine Park",
    "latitude": 50.2187059,
    "longitude": -126.3521018,
    "address": "4 Ridge Rd",
    "locality": "Woss",
    "seasonPass": 1365.0,
    "shuttle": false,
    "nightSkiing": false,
    "description": ""
  },
  {
    "index": 19,
    "name": "Whistler Mountain Resort",
    "latitude": 50.1134381,
    "longitude": -122.9545477,
    "address": "4545 Blackcomb Way",
    "locality": "Whistler",
    "seasonPass": null,
    "shuttle": true,
    "nightSkiing": false,
    "description": ""
  },
  {
    "index": 20,
    "name": "Panorama Mountain Village",
    "latitude": 50.4572978,
    "longitude": -116.2386686,
    "address": "1921 Panorama Dr",
    "locality": "Panorama",
    "seasonPass": 2008.0,
    "shuttle": true,
    "nightSkiing": false,
    "description": "free shuttle to columbia valley"
  },
  {
    "index": 21,
    "name": "Manning Park",
    "latitude": 49.0692465,
    "longitude": -120.9159271,
    "address": "7500 Hwy 3",
    "locality": "Manning Park West",
    "seasonPass": null,
    "shuttle": false,
    "nightSkiing": true,
    "description": "two free days at Apex, Mt. Seymour, Mt. Washington & Baldy Mountain Resort"
  },
  {
    "index": 22,
    "name": "Kicking Horse Mountian Resort",
    "latitude": 51.2973743,
    "longitude": -117.0451754,
    "address": "1500 Kicking Horse Trail",
    "locality": "Golden",
    "seasonPass": 3683.4,
    "shuttle": false,
    "nightSkiing": false,
    "description": ""
  },
  {
    "index": 23,
    "name": "Cypress Bowl",
    "latitude": 49.3956905,
    "longitude": -123.2021823,
    "address": "6000 Cypress Bowl Rd",
    "locality": "West Vancouver",
    "seasonPass": null,
    "shuttle": false,
    "nightSkiing": true,
    "description": ""
  },
  {
    "index": 24,
    "name": "Tabor Mountain Ski Resort",
    "latitude": 53.9431982,
    "longitude": -122.453127,
    "address": "17875 Prince George Hwy 16 E",
    "locality": "Ferndale-Tabor",
    "seasonPass": 1001.7,
    "shuttle": false,
    "nightSkiing": false,
    "description": "good biking in summer"
  },
  {
    "index": 25,
    "name": "Powder King Mountain Resort",
    "latitude": 55.365527,
    "longitude": -122.609943,
    "address": "55581 Powder King Rd",
    "locality": "Pine Pass",
    "seasonPass": 2005.0,
    "shuttle": true,
    "nightSkiing": false,
    "description": "shuttle is pricey ~ $30/ride"
  },
  {
    "index": 26,
    "name": "Clearwater Ski Hill",
    "latitude": 51.6368173,
    "longitude": -120.0258254,
    "address": "566 Dunn Lake Rd",
    "locality": "Clearwater",
    "seasonPass": null,
    "shuttle": false,
    "nightSkiing": false,
    "description": "tiny"
  },
  {
    "index": 27,
    "name": "Silver Star Mountain Resort",
    "latitude": 50.3590309,
    "longitude": -119.0569966,
    "address": "123 Shortt St",
    "locality": "Vernon",
    "seasonPass": null,
    "shuttle": true,
    "nightSkiing": false,
    "description": "no night skiing due to COVID"
  },
  {
    "index": 28,
    "name": "Sun Peaks Resort",
    "latitude": 50.8775256,
    "longitude": -119.9118599,
    "address": "1280 Alpine Rd",
    "locality": "Sun Peaks",
    "seasonPass": null,
    "shuttle": true,
    "nightSkiing": true,
    "description": "ngiht skiing on weekends and holidays till 19h"
  },
  {
    "index": 29,
    "name": "Hudson's Hope - Portage Mountain",
    "latitude": 56.0097334,
    "longitude": -122.1704702,
    "address": "22135 Canyon Dr",
    "locality": "Hudsons Hope",
    "seasonPass": null,
    "shuttle": false,
    "nightSkiing": false,
    "description": "practically non-existant"
  },
  {
    "index": 30,
    "name": "Mt Washington",
    "latitude": 49.7415107,
    "longitude": -125.3039175,
    "address": "1 Strathcona Pky",
    "locality": "Mt Washington",
    "seasonPass": 2317.9,
    "shuttle": false,
    "nightSkiing": true,
    "description": "shuttle exists but sold out, 6IXPAK tickets for $534 each, six days for when ever, whoever. Price above is for Gold ticket which includes night skiing. Regular pass is $100 less/person"
  },
  {
    "index": 31,
    "name": "Blackcomb",
    "latitude": 50.1149184,
    "longitude": -122.948621,
    "address": "4545 Blackcomb Way",
    "locality": "Whistler",
    "seasonPass": null,
    "shuttle": false,
    "nightSkiing": false,
    "description": ""
  },
  {
    "index": 32,
    "name": "Mt Timothy Ski Hill",
    "latitude": 51.9047839,
    "longitude": -121.2622874,
    "address": "318 Birch Pl",
    "locality": "Forest Grove",
    "seasonPass": 1459.5,
    "shuttle": false,
    "nightSkiing": false,
    "description": "family oriented"
  },
  {
    "index": 33,
    "name": "Hudson Bay Mountain",
    "latitude": 54.7686192,
    "longitude": -127.2796617,
    "address": "339 Prairie Rd",
    "locality": "Smithers",
    "seasonPass": 1448.0,
    "shuttle": true,
    "nightSkiing": false,
    "description": "shuttle is $5/ride, not that frequent and requires pre-booking"
  },
  {
    "index": 34,
    "name": "Whitewater Ski Resort",
    "latitude": 49.4429452,
    "longitude": -117.1453923,
    "address": "Whitewater Ski Hill Rd",
    "locality": "Nelson",
    "seasonPass": null,
    "shuttle": true,
    "nightSkiing": false,
    "description": ""
  },
  {
    "index": 35,
    "dopeness": 1,
    "name": "Kimberley Ski & Summer Resort",
    "latitude": 49.6883619,
    "longitude": -116.0047743,
    "address": null,
    "locality": "Kimberley",
    "seasonPass": 2381.4,
    "shuttle": true,
    "nightSkiing": true,
    "description": ""
  },
  {
    "index": 36,
    "dopeness": 1,
    "name": "Revelstoke Mountain Resort",
    "latitude": 50.9592023,
    "longitude": -118.1642368,
    "address": "2950 Camozzi Rd",
    "locality": "Revelstoke",
    "seasonPass": 2848.0,
    "shuttle": true,
    "nightSkiing": false,
    "description": "Bus: EvvRev Resort Express"
  },
  {
    "index": 37,
    "dopeness": 0.5,
    "name": "Grouse Mountain",
    "latitude": 49.3721144,
    "longitude": -123.0989765,
    "address": "6400 Nancy Greene Way",
    "locality": "North Vancouver",
    "seasonPass": 1627.5,
    "shuttle": true,
    "nightSkiing": true,
    "description": "Public transit goes straight o the base"
  }
]
